[
  { "id": 1, "name": "Adrar", "latitude": 27.8743, "longitude": -0.2939 },
  { "id": 2, "name": "Chlef", "latitude": 36.1653, "longitude": 1.3345 },
  { "id": 3, "name": "Laghouat", "latitude": 33.8078, "longitude": 2.865 },
  {
    "id": 4,
    "name": "Oum El Bouaghi",
    "latitude": 35.8754,
    "longitude": 7.1135
  },
  { "id": 5, "name": "Batna", "latitude": 35.5559, "longitude": 6.1741 },
  { "id": 6, "name": "Bejaia", "latitude": 36.7525, "longitude": 5.0567 },
  { "id": 7, "name": "Biskra", "latitude": 34.8504, "longitude": 5.728 },
  { "id": 8, "name": "Bechar", "latitude": 31.6167, "longitude": -2.2167 },
  { "id": 9, "name": "Blida", "latitude": 36.47, "longitude": 2.8287 },
  { "id": 10, "name": "Bouira", "latitude": 36.3749, "longitude": 3.902 },
  { "id": 11, "name": "Tamanrasset", "latitude": 22.785, "longitude": 5.5228 },
  { "id": 12, "name": "Tebessa", "latitude": 35.4042, "longitude": 8.1241 },
  { "id": 13, "name": "Tlemcen", "latitude": 34.8888, "longitude": -1.315 },
  { "id": 14, "name": "Tiaret", "latitude": 35.3711, "longitude": 1.3169 },
  { "id": 15, "name": "Tizi Ouzou", "latitude": 36.7169, "longitude": 4.0497 },
  { "id": 16, "name": "Algiers", "latitude": 36.7538, "longitude": 3.0588 },
  { "id": 17, "name": "Djelfa", "latitude": 34.6728, "longitude": 3.263 },
  { "id": 18, "name": "Jijel", "latitude": 36.8206, "longitude": 5.7667 },
  { "id": 19, "name": "Setif", "latitude": 36.1911, "longitude": 5.4137 },
  { "id": 20, "name": "Saida", "latitude": 34.8415, "longitude": 0.1517 },
  { "id": 21, "name": "Skikda", "latitude": 36.8665, "longitude": 6.9063 },
  {
    "id": 22,
    "name": "Sidi Bel Abbes",
    "latitude": 35.1899,
    "longitude": -0.6308
  },
  { "id": 23, "name": "Annaba", "latitude": 36.9, "longitude": 7.7667 },
  { "id": 24, "name": "Guelma", "latitude": 36.4621, "longitude": 7.4261 },
  { "id": 25, "name": "Constantine", "latitude": 36.365, "longitude": 6.6147 },
  { "id": 26, "name": "Medea", "latitude": 36.2642, "longitude": 2.7546 },
  { "id": 27, "name": "Mostaganem", "latitude": 35.9311, "longitude": 0.0892 },
  { "id": 28, "name": "Msila", "latitude": 35.7058, "longitude": 4.5419 },
  { "id": 29, "name": "Mascara", "latitude": 35.3966, "longitude": 0.1403 },
  { "id": 30, "name": "Ouargla", "latitude": 31.9539, "longitude": 5.327 },
  { "id": 31, "name": "Oran", "latitude": 35.6971, "longitude": -0.6308 },
  { "id": 32, "name": "El Bayadh", "latitude": 33.6832, "longitude": 1.0193 },
  { "id": 33, "name": "Illizi", "latitude": 26.5098, "longitude": 8.484 },
  {
    "id": 34,
    "name": "Bordj Bou Arreridj",
    "latitude": 36.0732,
    "longitude": 4.7611
  },
  { "id": 35, "name": "Boumerdes", "latitude": 36.7664, "longitude": 3.4772 },
  { "id": 36, "name": "El Tarf", "latitude": 36.7672, "longitude": 8.3138 },
  { "id": 37, "name": "Tindouf", "latitude": 27.6711, "longitude": -8.1474 },
  { "id": 38, "name": "Tissemsilt", "latitude": 35.6072, "longitude": 1.813 },
  { "id": 39, "name": "El Oued", "latitude": 33.3683, "longitude": 6.8675 },
  { "id": 40, "name": "Khenchela", "latitude": 35.4358, "longitude": 7.1433 },
  { "id": 41, "name": "Souk Ahras", "latitude": 36.2864, "longitude": 7.9511 },
  { "id": 42, "name": "Tipaza", "latitude": 36.5897, "longitude": 2.4475 },
  { "id": 43, "name": "Mila", "latitude": 36.4514, "longitude": 6.2647 },
  { "id": 44, "name": "Ain Defla", "latitude": 36.2654, "longitude": 1.9679 },
  { "id": 45, "name": "Naama", "latitude": 33.2667, "longitude": -0.3167 },
  {
    "id": 46,
    "name": "Ain Temouchent",
    "latitude": 35.2992,
    "longitude": -1.1404
  },
  { "id": 47, "name": "Ghardaia", "latitude": 32.4902, "longitude": 3.6736 },
  { "id": 48, "name": "Relizane", "latitude": 35.7373, "longitude": 0.5559 },
  { "id": 49, "name": "Timimoun", "latitude": 29.2639, "longitude": 0.2309 },
  {
    "id": 50,
    "name": "Bordj Badji Mokhtar",
    "latitude": 21.3289,
    "longitude": 0.95
  },
  {
    "id": 51,
    "name": "Ouled Djellal",
    "latitude": 34.4167,
    "longitude": 5.0667
  },
  { "id": 52, "name": "Beni Abbes", "latitude": 30.133, "longitude": -2.1667 },
  { "id": 53, "name": "In Salah", "latitude": 27.1935, "longitude": 2.46 },
  { "id": 54, "name": "In Guezzam", "latitude": 19.5687, "longitude": 5.7694 },
  { "id": 55, "name": "Touggourt", "latitude": 33.1053, "longitude": 6.0574 },
  { "id": 56, "name": "Djanet", "latitude": 24.5541, "longitude": 9.4842 },
  { "id": 57, "name": "El M'Ghair", "latitude": 33.9543, "longitude": 5.9222 },
  { "id": 58, "name": "El Meniaa", "latitude": 30.5833, "longitude": 2.8833 }
]
